<?xml version="1.0" encoding="UTF-8"?>
<campus xmlns="http://www.example.org/locations2" 
xmlns:xsi="http://www.w3.org/2001/XMLSchema-instance" 
xsi:schemaLocation="http://www.example.org/locations2 http://hydrick.net/projects/navigator/configuration/locationsSchema.xsd ">

    <location>
      <name>Academic Village Amphitheater</name>
      <coordinates>
            <latitude>36.10179</latitude>
            <longitude>-79.501716</longitude>
      </coordinates>
    </location>

    <location>
        <name>Acorn Coffee Shop</name>
        <coordinates>
            <latitude>36.1012354</latitude>
            <longitude>-79.506483</longitude>
        </coordinates>
        <description>Phone: 336-278-5350</description>
    </location>

    <location>
        <name>Admissions Parking</name>
        <coordinates>
            <latitude>36.105588</latitude>
            <longitude>-79.5030087</longitude>
        </coordinates>
    </location>

    <location>
        <name>Admissions Welcome Center</name>
        <coordinates>
            <latitude>36.105315</latitude>
            <longitude>-79.5031804</longitude>
        </coordinates>
    </location>
  
    <location>
        <name>Alamance Building</name>
        <coordinates>
            <latitude>36.1018347</latitude>
            <longitude>-79.504323</longitude>
        </coordinates>
    </location>

    <location>
      <name>Alan J. White Bell Tower</name>
      <coordinates>
          <latitude>36.1088028</latitude>
          <longitude>-79.5071957</longitude>
      </coordinates>
    </location>

    <location>
        <name>Alumni Center</name>
        <coordinates>
            <latitude>36.1036269</latitude>
            <longitude>-79.5027807</longitude>
        </coordinates>
    </location>

    <location>
        <name>Alumni Field House</name>
        <coordinates>
            <latitude>36.1108841</latitude>
            <longitude>-79.5081425</longitude>
        </coordinates>
    </location>

    <location>
        <name>Alumni Field House Parking</name>
        <coordinates>
            <latitude>36.1101994</latitude>
            <longitude>-79.5093709</longitude>
        </coordinates>
    </location>

    <location>
        <name>Arts West</name>
        <coordinates>
            <latitude>36.10333213</latitude>
            <longitude>-79.5126593</longitude>
        </coordinates>
    </location>

    <location>
        <name>Athletic Fields Parking</name>
        <coordinates>
            <latitude>36.100426</latitude>
            <longitude>-79.50023</longitude>
        </coordinates>
    </location>

    <location>
        <name>Belk Library</name>
        <coordinates>
            <latitude>36.1040841</latitude>
            <longitude>-79.5034969</longitude>
        </coordinates>
    </location>
  
    <location>
        <name>Belk Pavilion</name>
        <coordinates>
            <latitude>36.1024631</latitude>
            <longitude>-79.501268</longitude>
        </coordinates>
    </location>
    
    <location>
        <name>Business Services</name>
        <coordinates>
            <latitude>36.1030829</latitude>
            <longitude>-79.5106637</longitude>
        </coordinates>
    </location>

    <location>
        <name>Cable Schoolhouse</name>
        <coordinates>
            <latitude>36.1114389</latitude>
            <longitude>-79.5080298</longitude>
        </coordinates>
    </location>

    <location>
        <name>Campus Technology Support</name>
        <address>
            <street>114 West Lebanon Avenue</street>
            <cityStateZip>Elon NC 27244</cityStateZip>
        </address>
        <coordinates>
            <latitude>36.1008638</latitude>
            <longitude>-79.5076355</longitude>
        </coordinates>
        <description>Supports Windows PCs and Macs.</description>
    </location>
  
    <location>
        <name>Carlton Building</name>
        <coordinates>
            <latitude>36.1020947</latitude>
            <longitude>-79.504889</longitude>
        </coordinates>
    </location>
    
    <location>
        <name>Carolina Hall</name>
        <coordinates>
            <latitude>36.1024068</latitude>
            <longitude>-79.5027539</longitude>
        </coordinates>
        <description>All-female dorm.</description>
    </location>

    <location>
        <name>Caroline D. McCoy Commons</name>
        <coordinates>
            <latitude>36.104604</latitude>
            <longitude>-79.507842</longitude>
        </coordinates>
    </location>

    <location>
        <name>Center for Leadership</name>
        <coordinates>
            <latitude>36.1024761</latitude>
            <longitude>-79.5001924</longitude>
        </coordinates>
    </location>

    <location>
        <name>Center for the Arts</name>
        <coordinates>
            <latitude>36.1051243</latitude>
            <longitude>-79.5067799</longitude>
        </coordinates>
    </location>

    <location>
        <name>Center for the Arts Parking</name>
        <coordinates>
            <latitude>36.1045305</latitude>
            <longitude>-79.5070052</longitude>
        </coordinates>
    </location>

    <location>
        <name>Chandler Fountain</name>
        <coordinates>
            <latitude>36.106263</latitude>
            <longitude>-79.501534</longitude>
        </coordinates>
    </location>
    
    <location>
        <name>Chandler Hall</name>
        <coordinates>
            <latitude>36.1085352</latitude>
            <longitude>-79.4980627</longitude>
        </coordinates>
    </location>
  
    <location>
        <name>Coclough Hall</name>
        <coordinates>
            <latitude>36.1086457</latitude>
            <longitude>-79.4974512</longitude>
        </coordinates>
        <description>Moved to Danieley Center</description>
    </location>
  
    <location>
        <name>Colonnades Dining Hall</name>
        <coordinates>
            <latitude>36.1059045</latitude>
            <longitude>-79.5014182</longitude>
        </coordinates>
    </location>

    <location>
        <name>Colonnades Parking</name>
        <coordinates>
            <latitude>36.1076164</latitude>
            <longitude>-79.497875</longitude>
        </coordinates>
    </location>

    <location>
        <name>Daniel Commons</name>
        <coordinates>
            <latitude>36.1078461</latitude>
            <longitude>-79.4972205</longitude>
        </coordinates>
    </location>

    <location>
        <name>Danieley Center A</name>
        <coordinates>
            <latitude>36.1056856</latitude>
            <longitude>-79.4955388</longitude>
        </coordinates>
    </location>
    
    <location>
        <name>Danieley Center B</name>
        <coordinates>
            <latitude>36.1060713</latitude>
            <longitude>-79.4957614</longitude>
        </coordinates>
    </location>

    <location>
        <name>Danieley Center C</name>
        <coordinates>
            <latitude>36.1064592</latitude>
            <longitude>-79.4959921</longitude>
        </coordinates>
    </location>

    <location>
        <name>Danieley Center D</name>
        <coordinates>
            <latitude>36.1073932</latitude>
            <longitude>-79.4960189</longitude>
        </coordinates>
    </location>

    <location>
        <name>Danieley Center E</name>
        <coordinates>
            <latitude>36.1075536</latitude>
            <longitude>-79.4955683</longitude>
        </coordinates>
    </location>

    <location>
        <name>Danieley Center F</name>
        <coordinates>
            <latitude>36.1074517</latitude>
            <longitude>-79.495064</longitude>
        </coordinates>
    </location>

    <location>
        <name>Danieley Center G</name>
        <coordinates>
            <latitude>36.1083207</latitude>
            <longitude>-79.4966438</longitude>
        </coordinates>
    </location>

    <location>
        <name>Danieley Center H</name>
        <coordinates>
            <latitude>36.1087389</latitude>
            <longitude>-79.4963086</longitude>
        </coordinates>
    </location>

    <location>
        <name>Danieley Center I</name>
        <coordinates>
            <latitude>36.1091549</latitude>
            <longitude>-79.4959626</longitude>
        </coordinates>
    </location>

    <location>
        <name>Danieley Center J</name>
        <coordinates>
            <latitude>36.1088797</latitude>
            <longitude>-79.4954529</longitude>
        </coordinates>
    </location>

    <location>
        <name>Danieley Center K</name>
        <coordinates>
            <latitude>36.1086089</latitude>
            <longitude>-79.4949192</longitude>
        </coordinates>
    </location>

    <location>
        <name>Danieley Center O</name>
        <coordinates>
            <latitude>36.1074409</latitude>
            <longitude>-79.4946161</longitude>
        </coordinates>
    </location>

    <location>
        <name>Danieley Center P</name>
        <coordinates>
            <latitude>36.1075579</latitude>
            <longitude>-79.4940689</longitude>
        </coordinates>
    </location>

    <location>
        <name>Danieley Parking A</name>
        <coordinates>
            <latitude>36.108091</latitude>
            <longitude>-79.4956139</longitude>
        </coordinates>
    </location>

    <location>
        <name>Danieley Parking B</name>
        <coordinates>
            <latitude>36.1081755</latitude>
            <longitude>-79.4938329</longitude>
        </coordinates>
    </location>

     <location>
        <name>Danieley Parking C</name>
        <coordinates>
            <latitude>36.1094692</latitude>
            <longitude>-79.4971025</longitude>
        </coordinates>
    </location>

    <location>
        <name>Depot Commons Building at the Station at Mills Point</name>
        <address>
            <street>361 Station Circle</street>
            <cityStateZip>Elon NC 27244</cityStateZip>
        </address>
        <coordinates> 
            <latitude>36.097665</latitude>
            <longitude>-79.508931</longitude>
        </coordinates>
    </location>

    <location>
        <name>Duke Building</name>
        <coordinates>
            <latitude>36.1020947</latitude>
            <longitude>-79.5037249</longitude>
        </coordinates>
        <description>
            Mathematics and Computer Science department building.
        </description>
    </location>
  
    <location>
        <name>East Gym</name>
        <coordinates>
            <latitude>36.1023266</latitude>
            <longitude>-79.4990686</longitude>
        </coordinates>
    </location>

    <location>
        <name>Elon Community Church UCC</name>
        <address>
            <street>271 North Williamson Avenue</street>
            <cityStateZip>Elon NC 27244</cityStateZip>
        </address>
        <coordinates>
            <latitude>36.102407</latitude>
            <longitude>-79.507134</longitude>
        </coordinates>
    </location>

    <location>
        <name>Elon Community Garden</name>
        <coordinates>
            <latitude>36.1016526</latitude>
            <longitude>-79.5003292</longitude>
        </coordinates>
    </location>

    <location>
        <name>Elon Elementary School</name>
        <address>
            <street>510 East Haggard Avenue</street>
            <cityStateZip>Elon NC 27244</cityStateZip>
        </address>
        <coordinates>
            <latitude>36.103957</latitude>
            <longitude>-79.499168</longitude>
        </coordinates>
    </location>

    <location>
        <name>Elon Town Center</name>
        <coordinates>
            <latitude>36.1015085</latitude>
            <longitude>-79.5068966</longitude>
        </coordinates>
        <description>Campus store location.</description>
    </location>

    <location>
        <name>Elon University Forest</name>
        <coordinates>
          <latitude>36.1120499</latitude>
          <longitude>-79.5008147</longitude>
        </coordinates>
    </location>

    <location>
        <name>Elon University Lodge</name>
        <coordinates>
            <latitude>36.1052067</latitude>
            <longitude>-79.5179915</longitude>
        </coordinates>
    </location>

    <location>
        <name>Faculty/Staff Wellness Center</name>
        <coordinates>
            <latitude>36.102485</latitude>
            <longitude>-79.512445</longitude>
        </coordinates>
    </location>

    <location>
        <name>Financial Planning Parking</name>
        <coordinates>
            <latitude>36.099091</latitude>
            <longitude>-79.5010614</longitude>
        </coordinates>
    </location>

    <location>
        <name>First Baptist Church of Elon</name>
        <address>
            <street>621 East Haggard Avenue</street>
            <cityStateZip>Elon NC 27244</cityStateZip>
        </address>
        <coordinates>
            <latitude>36.103685</latitude>
            <longitude>-79.495413</longitude>
        </coordinates>
    </location>
  
    <location>
        <name>Fonville Fountain</name>
        <coordinates>
            <latitude>36.102238</latitude>
            <longitude>-79.504259</longitude>
        </coordinates>
    </location>

    <location>
        <name>Gerald L. Francis Center</name>
        <address>
            <street>762 E. Haggard Avenue</street>
            <cityStateZip>Elon NC 27244</cityStateZip>
        </address>
        <coordinates>
            <latitude>36.1068536</latitude>
            <longitude>-79.4885677</longitude>
        </coordinates>
    </location>

    <location>
        <name>Gerald L. Francis Center Parking 1</name>
        <address>
            <street>2957 Haggard Avenue</street>
            <cityStateZip>Elon NC 27244</cityStateZip>
        </address>
        <coordinates>
            <latitude>36.106975</latitude>
            <longitude>-79.4873553</longitude>
        </coordinates>
    </location>

    <location>
        <name>Gerald L. Francis Center Parking 2</name>
        <coordinates>
            <latitude>36.1065069</latitude>
            <longitude>-79.4891095</longitude>
        </coordinates>
    </location>

    <location>
        <name>Global Neighborhood A</name>
        <address>
            <street>2857 Bill Loy Drive</street>
            <cityStateZip>Elon NC 27244</cityStateZip>
        </address>
        <coordinates>
            <latitude>36.1057355</latitude>
            <longitude>-79.5055783</longitude>
        </coordinates>
    </location>

    <location>
        <name>Global Neighborhood B</name>
        <address>
            <street>2811 Bill Loy Drive</street>
            <cityStateZip>Elon NC 27244</cityStateZip>
        </address>
        <coordinates>
            <latitude>36.1061212</latitude>
            <longitude>-79.5053101</longitude>
        </coordinates>
    </location>

    <location>
        <name>Global Neighborhood C</name>
        <address>
            <street>2563 Bill Loy Drive</street>
            <cityStateZip>Elon NC 27244</cityStateZip>
        </address>
        <coordinates>
            <latitude>36.1067063</latitude>
            <longitude>-79.5051116</longitude>
        </coordinates>
    </location>

    <location>
        <name>Global Neighborhood Commons</name>
        <address>
            <street>2573 Bill Loy Drive</street>
            <cityStateZip>Elon NC 27244</cityStateZip>
        </address>
        <coordinates>
            <latitude>36.1064072</latitude>
            <longitude>-79.506045</longitude>
        </coordinates>
    </location>

    <location>
        <name>Global Neighborhood D</name>
        <address>
            <street>2317 Bill Loy Drive</street>
            <cityStateZip>Elon NC 27244</cityStateZip>
        </address>
        <coordinates>
            <latitude>36.1069836</latitude>
            <longitude>-79.5057017</longitude>
        </coordinates>
    </location>

    <location>
        <name>Global Neighborhood E</name>
        <address>
            <street>2139 Bill Loy Drive</street>
            <cityStateZip>Elon NC 27244</cityStateZip>
        </address>
        <coordinates>
            <latitude>36.1071527</latitude>
            <longitude>-79.5062542</longitude>
        </coordinates>
    </location>

    <location>
        <name>Global Neighborhood Parking</name>
        <coordinates>
            <latitude>36.1076857</latitude>
            <longitude>-79.5052242</longitude>
        </coordinates>
    </location>

    <location>
        <name>Gray Pavilion</name>
        <coordinates>
            <latitude>36.1020752</latitude>
            <longitude>-79.5021853</longitude>
        </coordinates>
    </location>

    <location>
        <name>Golf Driving Range</name>
        <coordinates>
            <latitude>36.096739</latitude>
            <longitude>-79.499592</longitude>
        </coordinates>
    </location>

    <location>
        <name>Golf Parking</name>
        <coordinates>
            <latitude>36.0977993</latitude>
            <longitude>-79.4996372</longitude>
        </coordinates>
    </location>

    <location>
        <name>Golf Putting Greens</name>
        <coordinates>
            <latitude>36.0980832</latitude>
            <longitude>-79.5003909</longitude>
        </coordinates>
    </location>

    <location>
        <name>Harden Clubhouse</name>
        <coordinates>
            <latitude>36.098248</latitude>
            <longitude>-79.4996265</longitude>
        </coordinates>
    </location>
  
    <location>
        <name>Harper Center Parking Lot</name>
        <coordinates>
            <latitude>36.107196</latitude>
            <longitude>-79.505203</longitude>
        </coordinates>
    </location>

    <location>
        <name>Harper Hall (Colonnades E)</name>
        <address>
            <street>696 Phoenix Drive</street>
            <cityStateZip>Elon NC 27244</cityStateZip>
        </address>
        <coordinates>
            <latitude>36.1063639</latitude>
            <longitude>-79.4988996</longitude>
        </coordinates>
    </location>

    <location>
        <name>Health Center Parking</name>
        <coordinates>
            <latitude>36.0980724</latitude>
            <longitude>-79.5021236</longitude>
        </coordinates>
    </location>

    <location>
        <name>Health and Wellness Center</name>
        <address>
            <street>306 South O'Kelly Avenue</street>
            <cityStateZip>Elon NC 27244</cityStateZip>
        </address>
        <coordinates>
            <latitude>36.0975653</latitude>
            <longitude>-79.5019251</longitude>
        </coordinates>
    </location>

    <location>
        <name>Holland House</name>
        <coordinates>
            <latitude>36.0988201</latitude>
            <longitude>-79.5004821</longitude>
        </coordinates>
    </location>
  
    <location>
        <name>Holt Chapel</name>
        <coordinates>
            <latitude>36.0989285</latitude>
            <longitude>-79.499723</longitude>
        </coordinates>
    </location>
  
    <location>
        <name>Hook, Brannock, Barney Halls</name>
        <coordinates>
            <latitude>36.1012734</latitude>
            <longitude>-79.5027003</longitude>
        </coordinates>
    </location>

    <location>
        <name>Hook, Brannock, Barney Parking</name>
        <coordinates>
            <latitude>36.1009071</latitude>
            <longitude>-79.5028156</longitude>
        </coordinates>
    </location>
    
    <location>
        <name>Hunt Field and Tucker Field</name>
        <address>
            <street>2139 Phoenix Drive</street>
            <cityStateZip>Elon NC 27244</cityStateZip>
        </address>
        <coordinates>
            <latitude>36.109376</latitude>
            <longitude>-79.5050955</longitude>
        </coordinates>
    </location>

    <location>
        <name>Hunt Softball Park</name>
        <address>
            <street>542 North Williamson Avenue</street>
            <cityStateZip>Elon NC 27244</cityStateZip>
        </address>
        <coordinates>
            <latitude>36.1073824</latitude>
            <longitude>-79.5093924</longitude>
        </coordinates>
    </location>

    <location>
        <name>Hunt Softball Park Parking</name>
        <coordinates>
            <latitude>36.1087736</latitude>
            <longitude>-79.5094728</longitude>
        </coordinates>
    </location>

    <location>
        <name>Information Technology</name>
        <address>
            <street>202 West Lebanon Avenue</street>
            <cityStateZip>Elon NC 27244</cityStateZip>
        </address>
        <coordinates>
            <latitude>36.1008464</latitude>
            <longitude>-79.5084697</longitude>
        </coordinates>
    </location>

    <location>
        <name>Irazu Coffee</name>
        <address>
            <street>304 North O'Kelly Avenue</street>
            <cityStateZip>Elon NC 27244</cityStateZip>
        </address>
        <coordinates>
            <latitude>36.105558</latitude>
            <longitude>-79.502483</longitude>
        </coordinates>
    </location>

    <location>
        <name>Isabella Cannon International Studies Pavilion</name>
        <address>
            <street>301 East College Avenue</street>
            <cityStateZip>Elon NC 27244</cityStateZip>
        </address>
        <coordinates>
            <latitude>36.1016851</latitude>
            <longitude>-79.5022202</longitude>
        </coordinates>
    </location>

    <location>
        <name>Jerry and Jeanne Robertson Track and Field Complex</name>
        <coordinates>
            <latitude>36.1102514</latitude>
            <longitude>-79.5061737</longitude>
        </coordinates>
        <description>Elon Phoenix track and field</description>
    </location>

    <location>
        <name>Johnston Hall</name>
        <coordinates>
            <latitude>36.099713</latitude>
            <longitude>-79.50023</longitude>
        </coordinates>
    </location>
    
    <location>
        <name>Kangaroo Express</name>
        <address>
            <street>110 West Haggard Avenue</street>
            <cityStateZip>Elon NC 27244</cityStateZip>
        </address>
        <coordinates>
            <latitude>36.102979</latitude>
            <longitude>-79.507172</longitude>
        </coordinates>
    </location>

    <location>
        <name>Kenan Honors Pavilion</name>
        <address>
            <street>313 East College Avenue</street>
            <cityStateZip>Elon NC 27244</cityStateZip>
        </address>
        <coordinates>
            <latitude>36.1017003</latitude>
            <longitude>-79.5013028</longitude>
        </coordinates>
        <description>Honors Fellows housing.</description>
    </location>

    <location>
        <name>Kivette Hall (Colonnades C)</name>
        <coordinates>
            <latitude>36.1066911</latitude>
            <longitude>-79.5002729</longitude>
        </coordinates>
    </location>

    <location>
        <name>Koury Athletic Center (Alumni Gym)</name>
        <coordinates>
            <latitude>36.1041318</latitude>
            <longitude>-79.50553</longitude>
        </coordinates>
        <description>Elon Phoenix basketball</description>
    </location>

    <location>
        <name>Koury Business Center</name>
        <address>
            <street>401 North O'Kelly Avenue</street>
            <cityStateZip>Elon NC 27244</cityStateZip>
        </address>
        <coordinates>
            <latitude>36.1063119</latitude>
            <longitude>-79.5008147</longitude>
        </coordinates>
    </location>

    <location>
        <name>Koury Field House</name>
        <coordinates>
            <latitude>36.1090206</latitude>
            <longitude>-79.5067692</longitude>
        </coordinates>
    </location>

    <location>
        <name>Lakeside Dining Hall</name>
        <address>
            <street>200 Campus Drive</street>
            <cityStateZip>Elon NC 27244</cityStateZip>
        </address>
        <coordinates>
            <latitude>36.1051438</latitude>
            <longitude>-79.5053825</longitude>
        </coordinates>
    </location>

    <location>
        <name>Lake Mary Nell</name>
        <coordinates>
            <latitude>36.106507</latitude>
            <longitude>-79.507118</longitude>
        </coordinates>
    </location>  

    <location>
        <name>Lake Verona</name>
        <coordinates>
            <latitude>36.106447</latitude>
            <longitude>-79.495021</longitude>
        </coordinates>
    </location> 

    <location>
        <name>Latham Park</name>
        <coordinates>
            <latitude>36.1080541</latitude>
            <longitude>-79.5079654</longitude>
        </coordinates>
        <description>Elon Phoenix baseball</description>
    </location>
  
    <location>
        <name>Lindner Hall</name>
        <coordinates>
            <latitude>36.1013633</latitude>
            <longitude>-79.5017534</longitude>
        </coordinates>
    </location>

    <location>
        <name>Lindner Parking 1</name>
        <address>
            <street>310 East Lebanon Avenue</street>
            <cityStateZip>Elon NC 27244</cityStateZip>
        </address>
        <coordinates>
            <latitude>36.1009115</latitude>
            <longitude>-79.5023382</longitude>
        </coordinates>
    </location>

    <location>
        <name>Lindner Parking 2</name>
        <address>
            <street>376 East Lebanon Avenue</street>
            <cityStateZip>Elon NC 27244</cityStateZip>
        </address>
        <coordinates>
            <latitude>36.1009505</latitude>
            <longitude>-79.501276</longitude>
        </coordinates>
    </location>

    <location>
        <name>Long Building</name>
        <coordinates>
            <latitude>36.1010848</latitude>
            <longitude>-79.5042479</longitude>
        </coordinates>
    </location>
    
    <location>
        <name>Loy Center</name>
        <address>
            <street>3773 Phoenix Drive</street>
            <cityStateZip>Elon NC 27244</cityStateZip>
        </address>
        <coordinates>
            <latitude>36.1067453</latitude>
            <longitude>-79.5034754</longitude>
        </coordinates>
    </location>

    <location>
        <name>Loy Farm</name>
        <address>
            <street>215 South Oak Avenue</street>
            <cityStateZip>Elon NC 27244</cityStateZip>
        </address>
        <coordinates>
            <latitude>36.0993251</latitude>
            <longitude>-79.4951391</longitude>
        </coordinates>
    </location>

    <location>
        <name>Maynard Hall</name>
        <coordinates>
            <latitude>36.1091246</latitude>
            <longitude>-79.4975665</longitude>
        </coordinates>
    </location>

    <location>
        <name>McEwen Building</name>
        <coordinates>
            <latitude>36.1014749</latitude>
            <longitude>-79.5062971</longitude>
        </coordinates>
    </location>

    <location>
        <name>McEwen Dining Hall</name>
        <address>
            <street>271 North Williamson Avenue</street>
            <cityStateZip>Elon NC 27244</cityStateZip>
        </address>
        <coordinates>
            <latitude>36.1020427</latitude>
            <longitude>-79.5062757</longitude>
        </coordinates>
    </location>

    <location>
        <name>McEwen Parking</name>
        <coordinates>
            <latitude>36.1008724</latitude>
            <longitude>-79.5055997</longitude>
        </coordinates>
    </location>

    <location>
        <name>McMichael and Koury Business Center Parking Lot</name>
        <coordinates>
            <latitude>36.104698</latitude>
            <longitude>-79.501839</longitude>
        </coordinates>
    </location>

    <location>
        <name>McMichael Science Center</name>
        <coordinates>
            <latitude>36.1035142</latitude>
            <longitude>-79.501846</longitude>
        </coordinates>
    </location>

    <location>
        <name>Moffitt Hall (Colonnades B)</name>
        <coordinates>
            <latitude>36.1059846</latitude>
            <longitude>-79.4992992</longitude>
        </coordinates>
    </location>

    <location>
        <name>Mooney Building</name>
        <coordinates>
            <latitude>36.1015746</latitude>
            <longitude>-79.5037061</longitude>
        </coordinates>
        <description>Education department building.</description>
    </location>
    
    <location>
        <name>Moseley Center</name>
        <coordinates>
            <latitude>36.1048426</latitude>
            <longitude>-79.5043605</longitude>
        </coordinates>
    </location>

    <location>
        <name>Numen Lumen Pavilion</name>
        <coordinates>
            <latitude>36.1024805</latitude>
            <longitude>-79.5021853</longitude>
        </coordinates>
        <description>Houses the Truitt Center for Religious and Spiritual Life</description>
    </location>

    <location>
        <name>Oak House</name>
        <address>
            <street>116 North Williamson Avenue</street>
            <cityStateZip>Elon NC 27244</cityStateZip>
        </address>
        <coordinates>
            <latitude>36.1011412</latitude>
            <longitude>-79.5069543</longitude>
        </coordinates>
    </location>

    <location>
        <name>Oaks A (Williams Hall)</name>
        <coordinates>
            <latitude>36.1048556</latitude>
            <longitude>-79.5082954</longitude>
        </coordinates>
    </location>
  
    <location>
        <name>Oaks B (Council Hall)</name>
        <coordinates>
            <latitude>36.1048513</latitude>
            <longitude>-79.5091107</longitude>
        </coordinates>
    </location>
  
    <location>
        <name>Oaks C</name>
        <coordinates>
            <latitude>36.1047689</latitude>
            <longitude>-79.5097733</longitude>
        </coordinates>
    </location>
  
    <location>
        <name>Oaks D</name>
        <coordinates>
            <latitude>36.10403</latitude>
            <longitude>-79.5097518</longitude>
        </coordinates>
    </location>
    
    <location>
        <name>Oaks E (Brown Hall)</name>
        <coordinates>
            <latitude>36.104082</latitude>
            <longitude>-79.5089364</longitude>
        </coordinates>
    </location>
  
    <location>
        <name>Oaks F (Sullivan Hall)</name>
        <coordinates>
            <latitude>36.104218</latitude>
            <longitude>-79.5080432</longitude>
        </coordinates>
    </location>

    <location>
        <name>Oaks Parking</name>
        <coordinates>
            <latitude>36.1035814</latitude>
            <longitude>-79.5069838</longitude>
        </coordinates>
    </location>

    <location>
        <name>Parking Lot - Student Permits</name>
        <coordinates>
            <latitude>36.1018953</latitude>
            <longitude>-79.4988567</longitude>
        </coordinates>
    </location>

    <location>
        <name>Phi Beta Kappa Commons</name>
        <coordinates>
            <latitude>36.1027882</latitude>
            <longitude>-79.5017481</longitude>
        </coordinates>
    </location>

    <location>
        <name>Phoenix Club Sports Fields</name>
        <coordinates>
            <latitude>36.0993966</latitude>
            <longitude>-79.4982532</longitude>
        </coordinates>
    </location>

    <location>
        <name>Phoenix Softball Clubhouse</name>
        <address>
            <street>542 North Williamson Avenue</street>
            <cityStateZip>Elon NC 27244</cityStateZip>
        </address>
        <coordinates>
            <latitude>36.1075557</latitude>
            <longitude>-79.5097357</longitude>
        </coordinates>
    </location>

    <location>
        <name>Powell Building</name>
        <coordinates>
            <latitude>36.1025346</latitude>
            <longitude>-79.5037356</longitude>
        </coordinates>
    </location>
  
    <location>
        <name>Powell House</name>
        <coordinates>
            <latitude>36.1017155</latitude>
            <longitude>-79.50012</longitude>
        </coordinates>
    </location>

    <location>
        <name>Powell House Parking</name>
        <coordinates>
            <latitude>36.1019344</latitude>
            <longitude>-79.4997633</longitude>
        </coordinates>
    </location>

    <location>
        <name>Priestley Building</name>
        <coordinates>
            <latitude>36.1007998</latitude>
            <longitude>-79.5068979</longitude>
        </coordinates>
    </location>

    <location>
        <name>Psychology and Human Service Studies</name>
        <coordinates>
            <latitude>36.099039</latitude>
            <longitude>-79.5018768</longitude>
        </coordinates>
    </location>

    <location>
        <name>Purchasing</name>
        <coordinates>
            <latitude>36.1024826</latitude>
            <longitude>-79.5124528</longitude>
        </coordinates>
    </location>

    <location>
        <name>Railroad Pedestrian Underpass</name>
        <address>
            <street>227 East Trollinger Avenue</street>
            <cityStateZip>Elon NC 27244</cityStateZip>
        </address>
        <coordinates>
            <latitude>36.1004607</latitude>
            <longitude>-79.5018232</longitude>
        </coordinates>
    </location>

    <location>
        <name>Recreation Fields</name>
        <coordinates>
            <latitude>36.1087129</latitude>
            <longitude>-79.4895709</longitude>
        </coordinates>
    </location>

    <location>
        <name>Rhodes Stadium</name>
        <coordinates>
            <latitude>36.109974</latitude>
            <longitude>-79.5076972</longitude>
        </coordinates>
        <description>Elon Phoenix football stadium</description>
    </location>

    <location>
        <name>Rhodes Stadium Ingold Parking Lot</name>
        <coordinates>
            <latitude>36.1088256</latitude>
            <longitude>-79.50921</longitude>
        </coordinates>
    </location>

    <location>
        <name>Rudd Field</name>
        <coordinates>
            <latitude>36.1082882</latitude>
            <longitude>-79.5062542</longitude>
        </coordinates>
        <description>Elon Phoenix soccer</description>
    </location>

    <location>
        <name>Scott Studios</name>
        <address>
            <street>405 North Manning Avenue</street>
            <cityStateZip>Elon NC 27244</cityStateZip>
        </address>
        <coordinates>
            <latitude>36.1033733</latitude>
            <longitude>-79.511822</longitude>
        </coordinates>
    </location>

    <location>
        <name>Sklut Hillel Center</name>
        <address>
            <street>401 East College Avenue</street>
            <cityStateZip>Elon NC 27244</cityStateZip>
        </address>
        <coordinates>
            <latitude>26.1017176</latitude>
            <longitude>-79.5006081</longitude>
        </coordinates>
    </location>

    <location>
      <name>Sheridan Place</name>
      <coordinates>
        <latitude>36.105461</latitude>
        <longitude>-79.497124</longitude>
      </coordinates>
    </location>

    <location>
        <name>Skid's Restaurant</name>
        <address>
            <street>134 West Haggard Avenue</street>
            <cityStateZip>Elon NC 27244</cityStateZip>
        </address>
        <coordinates>
            <latitude>36.103135</latitude>
            <longitude>-79.507767</longitude>
        </coordinates>
    </location>
  
    <location>
        <name>Sloan Hall</name>
        <coordinates>
            <latitude>36.1024198</latitude>
            <longitude>-79.5059377</longitude>
        </coordinates>
    </location>
  
    <location>
        <name>Smith Hall</name>
        <address>
            <street>301 East Haggard Avenue</street>
            <cityStateZip>Elon NC 27244</cityStateZip>
        </address>
        <coordinates>
            <latitude>36.1022746</latitude>
            <longitude>-79.5032045</longitude>
        </coordinates>
        <description>All-male dorm.</description>
    </location>
  
    <location>
        <name>South Campus Gym</name>
        <coordinates>
            <latitude>36.0975826</latitude>
            <longitude>-79.5011151</longitude>
        </coordinates>
    </location>

    <location>
        <name>South Campus Office Building</name>
        <address>
            <street>216 South Antioch Avenue</street>
            <cityStateZip>Elon NC 27244</cityStateZip>
        </address>
        <coordinates>
            <latitude>36.0987356</latitude>
            <longitude>-79.5012546</longitude>
        </coordinates>
    </location>

    <location>
        <name>Spence Pavilion</name>
        <coordinates>
            <latitude>36.1020817</latitude>
            <longitude>-79.5012787</longitude>
        </coordinates>
    </location>

    <location>
        <name>Staley Hall (Colonnades D)</name>
        <address>
            <street>696 Phoenix Drive</street>
            <cityStateZip>Elon NC 27244</cityStateZip>
        </address>
        <coordinates>
            <latitude>36.1067279</latitude>
            <longitude>-79.4993502</longitude>
        </coordinates>
    </location>

    <location>
        <name>Station at Mills Point Building 120</name>
        <address>
            <street>120 Station Circle</street>
            <cityStateZip>Elon NC 27244</cityStateZip>
        </address>
        <coordinates>
            <latitude>36.0984647</latitude>
            <longitude>-79.5077214</longitude>
        </coordinates>
    </location>

    <location>
        <name>Station at Mills Point Building 121</name>
        <address>
            <street>121 Station Circle</street>
            <cityStateZip>Elon NC 27244</cityStateZip>
        </address>
        <coordinates>
            <latitude>36.0981894</latitude>
            <longitude>-79.5074263</longitude>
        </coordinates>
    </location>

     <location>
        <name>Station at Mills Point Building 140</name>
        <address>
            <street>140 Station Circle</street>
            <cityStateZip>Elon NC 27244</cityStateZip>
        </address>
        <coordinates>
            <latitude>36.0980854</latitude>
            <longitude>-79.5079789</longitude>
        </coordinates>
    </location>

    <location>
        <name>Station at Mills Point Building 141</name>
        <address>
            <street>141 Station Circle</street>
            <cityStateZip>Elon NC 27244</cityStateZip>
        </address>
        <coordinates>
            <latitude>36.0980096</latitude>
            <longitude>-79.5075443</longitude>
        </coordinates>
    </location>

    <location>
        <name>Station at Mills Point Building 180</name>
        <address>
            <street>180 Station Circle</street>
            <cityStateZip>Elon NC 27244</cityStateZip>
        </address>
        <coordinates>
            <latitude>36.097769</latitude>
            <longitude>-79.5081371</longitude>
        </coordinates>
    </location>

    <location>
        <name>Station at Mills Point Building 181</name>
        <address>
            <street>181 Station Circle</street>
            <cityStateZip>Elon NC 27244</cityStateZip>
        </address>
        <coordinates>
            <latitude>36.0976996</latitude>
            <longitude>-79.5076141</longitude>
        </coordinates>
    </location>

    <location>
        <name>Station at Mills Point Building 190</name>
        <address>
            <street>190 Station Circle</street>
            <cityStateZip>Elon NC 27244</cityStateZip>
        </address>
        <coordinates>
            <latitude>36.0975609</latitude>
            <longitude>-79.5081934</longitude>
        </coordinates>
    </location>

    <location>
        <name>Station at Mills Point Building 210</name>
        <address>
            <street>210 Station Circle</street>
            <cityStateZip>Elon NC 27244</cityStateZip>
        </address>
        <coordinates>
            <latitude>36.0973615</latitude>
            <longitude>-79.5082685</longitude>
        </coordinates>
    </location>

    <location>
        <name>Station at Mills Point Building 211</name>
        <address>
            <street>211 Station Circle</street>
            <cityStateZip>Elon NC 27244</cityStateZip>
        </address>
        <coordinates>
            <latitude>36.0974417</latitude>
            <longitude>-79.5076784</longitude>
        </coordinates>
    </location>

    <location>
        <name>Station at Mills Point Building 221</name>
        <address>
            <street>221 Station Circle</street>
            <cityStateZip>Elon NC 27244</cityStateZip>
        </address>
        <coordinates>
            <latitude>36.0971903</latitude>
            <longitude>-79.5077965</longitude>
        </coordinates>
    </location>

    <location>
        <name>Station at Mills Point Building 231</name>
        <address>
            <street>231 Station Circle</street>
            <cityStateZip>Elon NC 27244</cityStateZip>
        </address>
        <coordinates>
            <latitude>36.0969931</latitude>
            <longitude>-79.5078957</longitude>
        </coordinates>
    </location>

    <location>
        <name>Station at Mills Point Building 261</name>
        <address>
            <street>261 Station Circle</street>
            <cityStateZip>Elon NC 27244</cityStateZip>
        </address>
        <coordinates>
            <latitude>36.0968176</latitude>
            <longitude>-79.5082444</longitude>
        </coordinates>
    </location>

    <location>
        <name>Station at Mills Point Building 271</name>
        <address>
            <street>271 Station Circle</street>
            <cityStateZip>Elon NC 27244</cityStateZip>
        </address>
        <coordinates>
            <latitude>36.0968306</latitude>
            <longitude>-79.5085046</longitude>
        </coordinates>
    </location>

    <location>
        <name>Station at Mills Point Building 281</name>
        <address>
            <street>281 Station Circle</street>
            <cityStateZip>Elon NC 27244</cityStateZip>
        </address>
        <coordinates>
            <latitude>36.0968262</latitude>
            <longitude>-79.5087594</longitude>
        </coordinates>
    </location>
    
    <location>
        <name>Station at Mills Point Building 311</name>
        <address>
            <street>311 Station Circle</street>
            <cityStateZip>Elon NC 27244</cityStateZip>
        </address>
        <coordinates>
            <latitude>36.0970061</latitude>
            <longitude>-79.5090035</longitude>
        </coordinates>
    </location>

    <location>
        <name>Station at Mills Point Building 321</name>
        <address>
            <street>321 Station Circle</street>
            <cityStateZip>Elon NC 27244</cityStateZip>
        </address>
        <coordinates>
            <latitude>36.09716</latitude>
            <longitude>-79.5090008</longitude>
        </coordinates>
    </location>

    <location>
        <name>Station at Mills Point Building 340</name>
        <address>
            <street>340 Station Circle</street>
            <cityStateZip>Elon NC 27244</cityStateZip>
        </address>
        <coordinates>
            <latitude>36.0973984</latitude>
            <longitude>-79.5085502</longitude>
        </coordinates>
    </location>

    <location>
        <name>Station at Mills Point Building 341</name>
        <address>
            <street>341 Station Circle</street>
            <cityStateZip>Elon NC 27244</cityStateZip>
        </address>
        <coordinates>
            <latitude>36.0973702</latitude>
            <longitude>-79.5089713</longitude>
        </coordinates>
    </location>

    <location>
        <name>Station at Mills Point Building 410</name>
        <address>
            <street>410 Station Circle</street>
            <cityStateZip>Elon NC 27244</cityStateZip>
        </address>
        <coordinates>
            <latitude>36.0979077</latitude>
            <longitude>-79.5084187</longitude>
        </coordinates>
    </location>

    <location>
        <name>Station at Mills Point Building 411</name>
        <address>
            <street>411 Station Circle</street>
            <cityStateZip>Elon NC 27244</cityStateZip>
        </address>
        <coordinates>
            <latitude>36.0980811</latitude>
            <longitude>-79.5089015</longitude>
        </coordinates>
    </location>

    <location>
        <name>Station at Mills Point Building 430</name>
        <address>
            <street>430 Station Circle</street>
            <cityStateZip>Elon NC 27244</cityStateZip>
        </address>
        <coordinates>
            <latitude>36.0981656</latitude>
            <longitude>-79.50829</longitude>
        </coordinates>
    </location>

    <location>
        <name>Station at Mills Point Building 431</name>
        <address>
            <street>431 Station Circle</street>
            <cityStateZip>Elon NC 27244</cityStateZip>
        </address>
        <coordinates>
            <latitude>36.0981656</latitude>
            <longitude>-79.50829</longitude>
        </coordinates>
    </location>

     <location>
        <name>Station at Mills Point Building 451</name>
        <address>
            <street>451 Station Circle</street>
            <cityStateZip>Elon NC 27244</cityStateZip>
        </address>
        <coordinates>
            <latitude>36.0985037</latitude>
            <longitude>-79.508801</longitude>
        </coordinates>
    </location>

    <location>
        <name>Station at Mills Point Building 471</name>
        <address>
            <street>471 Station Circle</street>
            <cityStateZip>Elon NC 27244</cityStateZip>
        </address>
        <coordinates>
            <latitude>36.098495</latitude>
            <longitude>-79.5085341</longitude>
        </coordinates>
    </location>

    <location>
      <name>Story Hall (Colonnades A)</name>
        <coordinates>
            <latitude>36.1059456</latitude>
            <longitude>-79.5002353</longitude>
        </coordinates>
    </location>

    <location>
        <name>Subway</name>
        <address>
            <street>112 West Lebanon Avenue</street>
            <cityStateZip>Elon NC 27244</cityStateZip>
        </address>
        <coordinates>
            <latitude>36.1007777</latitude>
            <longitude>-79.507209</longitude>
        </coordinates>
    </location>

    <location>
        <name>Tennis Courts</name>
        <coordinates>
            <latitude>36.1024761</latitude>
            <longitude>-79.5001924</longitude>
        </coordinates>
    </location>

    <location>
        <name>Tennis Parking</name>
        <coordinates>
            <latitude>36.1029529</latitude>
            <longitude>-79.4986153</longitude>
        </coordinates>
    </location>

    <location>
        <name>Trollinger House</name>
        <address>
            <street>201 West Trollinger Avenue</street>
            <cityStateZip>Elon NC 27244</cityStateZip>
        </address>
        <coordinates>
            <latitude>36.1000229</latitude>
            <longitude>-79.5084161</longitude>
        </coordinates>
    </location>

    <location>
        <name>Truitt Hall</name>
        <coordinates>
            <latitude>36.1002743</latitude>
            <longitude>-79.500533</longitude>
        </coordinates>
    </location>

    <location>
        <name>US Post Office</name>
        <address>
            <street>105 South Williamson Avenue</street>
            <cityStateZip>Elon NC 27244</cityStateZip>
        </address>
        <coordinates>
            <latitude>36.099962</latitude>
            <longitude>-79.506394</longitude>
        </coordinates>
    </location>
  
    <location>
        <name>Virginia Hall</name>
        <address>
            <street>61 East Haggard Avenue</street>
            <cityStateZip>Elon NC 27244</cityStateZip>
        </address>
        <coordinates>
            <latitude>36.1022941</latitude>
            <longitude>-79.5054442</longitude>
        </coordinates>
    </location>
    
    <location>
        <name>West Hall</name>
        <coordinates>
            <latitude>36.1019734</latitude>
            <longitude>-79.5054227</longitude>
        </coordinates>
        <description>All-female dorm.</description>
    </location>

    <location>
        <name>West Oak Pavilion</name>
        <address>
            <street>202 North Manning Avenue</street>
            <cityStateZip>Elon NC 27244</cityStateZip>
        </address>
        <coordinates>
            <latitude>36.1022161</latitude>
            <longitude>-79.511624</longitude>
        </coordinates>
    </location>

    <location>
        <name>Whitley Auditorium</name>
        <coordinates>
            <latitude>36.1016288</latitude>
            <longitude>-79.5048514</longitude>
        </coordinates>
    </location>

    <location>
        <name>Worsley Golf Training Center</name>
        <coordinates>
            <latitude>36.0974266</latitude>
            <longitude>-79.5005357</longitude>
        </coordinates>
    </location>

</campus>
